<?xml version="1.0" encoding="UTF-8"?>
<gpx version="1.1" creator="boise-trails-ai" xmlns="http://www.topografix.com/GPX/1/1">
  <metadata>
    <name>Dry Creek: Corrals (12) cues</name>
    <desc>12. 8th Street ATV Parking Area | Official 7.81 mi; On-foot 14.14 mi; Door-to-door p75 4h 3m; Segments left 10 / 10. Check current Ridge to Rivers signage and conditions before leaving.</desc>
  </metadata>
  <wpt lat="43.650725" lon="-116.147070">
    <name>PARK/START 8th Street ATV Parking Area</name>
    <desc>Park here and start this outing.</desc>
  </wpt>
  <wpt lat="43.650700" lon="-116.147100">
    <name>CAR PASS 1</name>
    <desc>Pass by the parked car again near mile 9.66.</desc>
  </wpt>
  <wpt lat="43.654074" lon="-116.151373">
    <name>CUE 01 Corrals Trail</name>
    <desc>Follow Corrals Trail. First official segment here: Corrals Trail 1. Either direction allowed; follow map arrows. This is a navigation cue, not the full segment-credit audit.</desc>
  </wpt>
  <wpt lat="43.647848" lon="-116.148131">
    <name>CUE 02 8th Street Motorcycle Trail</name>
    <desc>Follow 8th Street Motorcycle Trail. First official segment here: 8th Street Motorcycle Trail 1. Either direction allowed; follow map arrows. This is a navigation cue, not the full segment-credit audit.</desc>
  </wpt>
  <wpt lat="43.641171" lon="-116.155083">
    <name>CUE 03 Sidewinder Trail</name>
    <desc>Follow Sidewinder Trail. First official segment here: Sidewinder Trail 1. Either direction allowed; follow map arrows. This is a navigation cue, not the full segment-credit audit.</desc>
  </wpt>
  <wpt lat="43.650750" lon="-116.147074">
    <name>RETURN TO CAR</name>
    <desc>Route endpoint / return-to-car point.</desc>
  </wpt>
</gpx>
