<?xml version="1.0" encoding="UTF-8"?>
<gpx version="1.1" creator="boise-trails-ai" xmlns="http://www.topografix.com/GPX/1/1">
  <metadata>
    <name>Hillside to Hollow: Who Now Loop (1B) cues</name>
    <desc>1B. Harrison Hollow | Official 4.72 mi; On-foot 6.36 mi; Door-to-door p75 2h 21m; Segments left 12 / 12. Check current Ridge to Rivers signage and conditions before leaving.</desc>
  </metadata>
  <wpt lat="43.644766" lon="-116.208353">
    <name>PARK/START Harrison Hollow Trailhead</name>
    <desc>Park here and start this outing.</desc>
  </wpt>
  <wpt lat="43.646164" lon="-116.208189">
    <name>CUE 01 #57 Harrison Hollow</name>
    <desc>Follow #57 Harrison Hollow. First official segment here: Harrison Hollow 1. Signpost: #57 Harrison Hollow. Either direction allowed; follow map arrows. This is a navigation cue, not the full segment-credit audit.</desc>
  </wpt>
  <wpt lat="43.653598" lon="-116.217414">
    <name>CUE 02 #52 Kemper's Ridge Trail</name>
    <desc>Follow #52 Kemper's Ridge Trail. First official segment here: Kemper's Ridge Trail 1. Signpost: #52 Kemper's Ridge Trail. Either direction allowed; follow map arrows. This is a navigation cue, not the full segment-credit audit.</desc>
  </wpt>
  <wpt lat="43.648441" lon="-116.209395">
    <name>CUE 03 #50 Hippie Shake Trail</name>
    <desc>Follow #50 Hippie Shake Trail. First official segment here: Hippie Shake Trail 1. Signpost: #50 Hippie Shake Trail. Either direction allowed; follow map arrows. This is a navigation cue, not the full segment-credit audit.</desc>
  </wpt>
  <wpt lat="43.649002" lon="-116.209376">
    <name>CUE 04 #51 Who Now Loop Trail</name>
    <desc>Follow #51 Who Now Loop Trail. First official segment here: Who Now Loop Trail 1. Signpost: #51 Who Now Loop Trail. Either direction allowed; follow map arrows. This is a navigation cue, not the full segment-credit audit.</desc>
  </wpt>
  <wpt lat="43.654257" lon="-116.211397">
    <name>CUE 05 #58 Harrison Ridge</name>
    <desc>Follow #58 Harrison Ridge. First official segment here: Harrison Ridge 2. Signpost: #58 Harrison Ridge. Either direction allowed; follow map arrows. This is a navigation cue, not the full segment-credit audit.</desc>
  </wpt>
  <wpt lat="43.644810" lon="-116.208310">
    <name>RETURN TO CAR</name>
    <desc>Route endpoint / return-to-car point.</desc>
  </wpt>
</gpx>
